[{
        "lat": 20.957837, 
        "lng": 107.047258,
        "title": "Starcity Halong Bay Hotel",
        "content": "<b>Địa chỉ</b>: Đường Hạ Long,<br> phường Bãi Cháy, <br>thành phố Hạ Long, <br>Quảng Ninh.<br><b>Mô tả</b>: Star City Ha Long <br>Bay Hotel 4 sao<br> là khách sạn cao cấp ...",
        "link": "#Hotel/8"
    },
    {
        "lat": 20.960109,
        "lng": 107.061009,
        "title": "Halong Plaza Hotel",
        "content": "<b>Địa chỉ</b>: Số 8 Hạ Long,<br> phường Bãi Cháy, <br>thành phố Hạ Long.<br><b>Mô tả</b>: Khách sạn Hạ Long Plaza<br> tiêu chuẩn 4* <br>nằm tọa lạc trên con <br>đường Hạ Long ngay<br> trung tâm thành phố...",
        "link": "#Hotel/7"
    },
    {
        "lat": 20.959036, 
        "lng": 107.018443,
        "title": "Sea Star Hạ Long",
        "content": "<b>Địa chỉ</b>: 38-50 Phan Chu Trinh,<br> phường Bãi Cháy, <br>Thành phố Hạ Long.<br>",
        "link": "#Hotel/4"
    },
    {
        "lat": 20.921392, 
        "lng": 106.988904,
        "title": "Hạ Long Paradise Suites",
        "content": "<b>Địa chỉ</b>: Số 7 đường Hùng Thắng, <br>phường Bãi Cháy, <br>thành phố Hạ Long. <br><b>Mô tả</b>: Được du khách đánh giá là <br>“một khách sạn sang trọng và đẳng cấp,<br> Paradise thực sự là thiên đường”...",
        "link": "#Hotel/5"
    },
    {
        "lat": 20.940966, 
        "lng": 107.025732,
        "title": "Vinpearl Ha Long Bay Resort",
        "content": "<b>Địa chỉ</b>: Đảo Rều - Vịnh Hạ Long,<br> phường Bãi Cháy, <br>thành phố Hạ Long. <br><b>Mô tả</b>: Khu resort nghỉ dưỡng<br> cao cấp Vinpearl Hạ Long <br>được xây dựng tại đảo Rều,<br> phường Bãi Cháy, <br>TP Hạ Long...",
        "link": "#Hotel/1"
    },
    {
        "lat": 20.955080, 
        "lng": 107.022299,
        "title": "Khách Sạn Song Lộc",
        "content": "<b>Địa chỉ</b>:Số 8 đường Hạ Long,<br> Thành phố Hạ Long,<br> Quảng Ninh, Việt Nam.",
        "link": "#Hotel/2"
    },
    {
        "lat": 20.956615, 
        "lng": 107.049343,
        "title": "Khách Sạn Mường Thanh",
        "content": "<b>Địa chỉ</b>: Số 7, Lô 20, <br>đường Hạ Long, <br>phường Bãi Cháy, <br>Thành phố Hạ Long, <br>Tỉnh Quảng Ninh .<br><b>Mô tả</b>: Tọa lạc ngay trung tâm<br> khu du lịch Bãi Cháy...",
        "link": "#Hotel/6"
    },
    {
        "lat": 20.952029, 
        "lng": 107.041968,
        "title": "Hotel Novotel Ha Long Bay",
        "content": "<b>Địa chỉ</b>: 160 đường Hạ Long, <br>phường Bãi Cháy, <br>thành phố Hạ Long.<br><b>Mô tả</b>: Chỗ nghỉ này cách<br> bãi biển 6 phút đi bộ...",
        "link": "#Hotel/3"
    },
    {
        "lat": 20.958314, 
        "lng": 107.050829,
        "title": "khách Sạn Starlight hotel",
        "content": "<b>Địa chỉ</b>: Số 1A phố Anh Đào, <br>phường Bãi Cháy, <br>thành phố Hạ Long, <br>Tỉnh Quảng Ninh .<br><b>Mô tả</b>: Tọa lạc tại vị trí lí <br>tưởng gần vịnh Hạ Long xinh đẹp...",
        "link": "#Hotel/1"
    },
    {
        "lat": 20.959473, 
        "lng": 107.051444,
        "title": "Khách sạn Hoàng Anh",
        "content": "<b>Địa chỉ</b>: Số 68 phố Anh Đào, <br>phường Bãi Cháy, <br>thành phố Hạ Long, <br>Tỉnh Quảng Ninh .<br><b>Mô tả</b>: Tọa lạc tại trung tâm<br> thành phố Hạ Long, <br>Hoang Anh Hotel cung cấp...",
        "link": "#Hotel/1"
    },
    {
        "lat": 20.955361, 
        "lng": 107.021001,
        "title": "Halong Palace Hotel",
        "content": "<b>Địa chỉ</b>: Ô 1, lô 20, <br>khu du lịch Đông Hùng Thắng,<br>phường Bãi Cháy, <br>thành phố Hạ Long, Quảng Ninh.<br><b>Mô tả</b>: Ngay khu trung tâm thương mại <br>và du lich của thành phố Hạ Long...",
        "link": "#Hotel/1"
    },
    {
        "lat": 20.956425, 
        "lng": 107.018272,
        "title": "Royal Lotus Hotel Halong",
        "content": "<b>Địa chỉ</b>: Ô A13, Lô 1, <br>Khu Đô thị Đông Hùng Thắng 2, <br>Đại lộ Hạ Long Marine, Bãi Cháy...",
        "link": "#Hotel/1"
    },
    {
        "lat": 20.919875, 
        "lng": 106.985561,
        "title": "Legend Halong",
        "content": "<b>Địa chỉ</b>: Neo đậu tại đảo Tuần Châu, <br>thành phố Hạ Long, <br>",
        "link": "#Hotel/1"
    },
    {
        "lat": 20.919062, 
        "lng": 106.985291,
        "title": "Galaxy Classic Cruise Halong Bay",
        "content": "<b>Địa chỉ</b>: 25 A, Đại lộ Hạ Long Marine<br> Tuần Châu<br> Thành phố Hạ Long<br> Quảng Ninh<br><b>Mô tả</b>: Galaxy Classic Cruise<br> cung cấp các phòng<br> và suite máy lạnh có tầm nhìn<br> ra quang cảnh Vịnh Hạ Long.",
        "link": "#Hotel/1"
    },
    {
        "lat": 20.921985, 
        "lng": 106.984052,
        "title": "Alisa Premier Cruise",
        "content": "<b>Địa chỉ</b>: Ngọc Châu, Tuần Châu<br> Thành phố Hạ Long<br> Quảng Ninh<br><b>Mô tả</b>: Là du thuyền sang trọng <br>và hiện đại bậc nhất...",
        "link": "#Hotel/1"
    },
    {
        "lat": 20.959468, 
        "lng": 107.060384,
        "title": "Wyndham Legend Halong",
        "content": "<b>Địa chỉ</b>: Số 12, đường Hạ Long, <br>thành phố Hạ Long, <br>Quảng Ninh<br><b>Mô tả</b>: Wyndham Legend Halong <br>có hồ bơi ngoài trời...",
        "link": "#Hotel/1"
    },
    {
        "lat": 20.957113, 
        "lng": 107.050087,
        "title": "Khách sạn Hạ Long Party",
        "content": "<b>Địa chỉ</b>: 21 vườn đào, <br>Bãi Cháy, Quảng Ninh<br><b>Mô tả</b>: Nằm tại Bãi Cháy, <br>cách bờ biển 5 phút đi bộ...",
        "link": "#Hotel/1"
    },
    {
        "lat": 20.956630, 
        "lng": 107.050657,
        "title": "Halong Dream Hotel",
        "content": "<b>Địa chỉ</b>: Số 10, đường Hạ Long,<br>thành phố Hạ Long<br><b>Mô tả</b>: Nơi tự hào cung cấp<br> cho du khách nhiều tiện nghi...",
        "link": "#Hotel/1"
    },
    {
        "lat": 20.967777, 
        "lng": 107.035019,
        "title": "Khách sạn Sao Biển",
        "content": "<b>Địa chỉ</b>: Tổ 19, Khu 4b, <br>Phường Bãi Cháy, Thành phố Hạ Long<br>",
        "link": "#Hotel/1"
    },
    {
        "lat": 20.955589, 
        "lng": 107.046415,
        "title": "Khách Sạn Heritage Hạ Long",
        "content": "<b>Địa chỉ</b>: 88 Hạ Long, Bãi Cháy, <br>Thành phố Hạ Long, Quảng Ninh<br>",
        "link": "#Hotel/1"
    },
    {
        "lat": 20.956899, 
        "lng": 107.050259,
        "title": "Khách Sạn Bưu điện Hạ Long",
        "content": "<b>Địa chỉ</b>: Hạ Long, Bãi Cháy, <br>Thành phố Hạ Long, Quảng Ninh<br>",
        "link": "#Hotel/1"
    },
    {
        "lat": 20.952412, 
        "lng": 107.141599,
        "title": "Khách Sạn Hoàng Yến",
        "content": "<b>Địa chỉ</b>: 607 Vũ Văn Hiếu, Hà Tu<br> Thành phố Hạ Long",
        "link": "#Hotel/1"
    },
    {
        "lat": 20.960473, 
        "lng": 107.062215,
        "title": "Khách Sạn Bạch Đằng",
        "content": "<b>Địa chỉ</b>: Số 2 Hạ Long, Bãi Cháy, T<br>hành phố Hạ Long, <br>",
        "link": "#Hotel/1"
    }]