[{
        "lat": 20.8434084,
        "lng": 107.0095419,
        "title": "Vịnh Hạ Long",
        "content": "<b>Địa chỉ</b>: Thành phố Hạ Long, tỉnh Quảng Ninh.<br><b>Mô tả</b>: Vịnh Hạ Long có 1969 <br>hòn đảo lớn nhỏ mà <br>trong đó có 989 hòn đảo có <br>tên nói lên hình dạng <br>hoặc truyền thuyết về hòn đảo đó.",
        "link": "#Attraction/1"
    },
    {
        "lat": 20.859085, 
        "lng": 107.080178,
        "title": "Đảo Titop",
        "content": "<b>Địa chỉ</b>:Vịnh Hạ Long, Thành phố Hạ Long, <br>tỉnh Quảng Ninh.<br>",
        "link": "#Attraction/2"
    },
    {
        "lat": 20.890486, 
        "lng": 107.026223,
        "title": "Hòn Trống Mái",
        "content": "<b>Địa chỉ</b>:Vịnh Hạ Long, Thành phố Hạ Long<br><b>Mô tả</b>: Hòn Trống Mái là một biểu tượng <br>của du lịch Việt Nam...",
        "link": "#Attraction/3"
    },
    {
        "lat": 20.844197, 
        "lng": 107.091271,
        "title": "Hang Sửng Sốt",
        "content": "<b>Địa chỉ</b>:Vịnh Hạ Long, Thành phố Hạ Long.<br><b>Mô tả</b>: Hang Sửng Sốt là một<br> hang rộng và đẹp vào<br> bậc nhất của vịnh Hạ Long...",
        "link": "#Attraction/4"
    },
    {
        "lat": 20.955394, 
        "lng": 107.049516,
        "title": "Công viên Sun World Hạ Long",
        "content": "<b>Địa chỉ</b>: Đường Hạ Long, <br>phường Bãi Cháy, <br>thành phố Hạ Long, tỉnh Quảng Ninh.<br>",
        "link": "#Attraction/5"
    },
    {
        "lat": 20.950435, 
        "lng": 107.040725,
        "title": "Công viên Đại dương Hạ Long",
        "content": "<b>Địa chỉ</b>: Phường Bãi Cháy, <br>phường Hồng Gai thuộc <br>tỉnh Quảng Ninh.<br>",
        "link": "#Attraction/1"
    },
    {
        "lat": 20.945364, 
        "lng": 107.079052,
        "title": "Di tích Bài thơ cổ",
        "content": "<b>Địa chỉ</b>: Phường Bạch Đằng, <br>Thành phố Hạ Long<br><b>Mô tả</b>: Nổi bật trong quần thể <br>di tích lịch sử - văn hóa,<br> ngọn núi cao 106m <br>hiện lên uy nghi...",
        "link": "#Attraction/1"
    },
    {
        "lat": 20.952319, 
        "lng": 107.094168,
        "title": "Khu Vui Chơi Giải Trí Hồ cô Tiên",
        "content": "<b>Địa chỉ</b>: Phường Bạch Đằng, <br>Thành phố Hạ Long, <br>Quảng Ninh.<br><b>Mô tả</b>: Khu vui chơi Hồ Cô Tiên <br>nằm cạnh Cung văn hóa <br>thiếu nhi và Đài tưởng niệm...",
        "link": "#Attraction/1"
    },
    {
        "lat": 20.956096, 
        "lng": 107.056215,
        "title": "Cáp treo Nữ Hoàng",
        "content": "<b>Địa chỉ</b>: Phường Bãi Cháy, <br>phường Hồng Gai thuộc<br> tỉnh Quảng Ninh.<br><b>Mô tả</b>: Cáp treo Nữ hoàng <br>là hệ thống cáp treo<br> xuyên Vịnh đầu tiên ...",
        "link": "#Attraction/1"
    },
    {
        "lat": 20.949809, 
        "lng": 107.080221,
        "title": "Chùa Long Tiên",
        "content": "<b>Địa chỉ</b>: Long Tiên, P. Bạch Đằng, <br>Thành phố Hạ Long, <br>Quảng Ninh.<br><b>Mô tả</b>: Chùa Long Tiên được <br>xây dựng vào năm 1941...",
        "link": "#Attraction/1"
    },
    {
        "lat": 20.948757, 
        "lng": 107.097512,
        "title": "Bảo Tàng Quảng Ninh",
        "content": "<b>Địa chỉ</b>: Đường Trần Quốc Nghiễn, <br>phường Hồng Hải, tp Hạ Long.<br><b>Mô tả</b>: Là công trình kiến trúc<br>nghệ thuật độc đáo của tỉnh nhà",
        "link": "#Attraction/1"
    },
    {
        "lat": 20.959703, 
        "lng": 107.061541,
        "title": "Đài tưởng niệm chiến thắng trận đầu",
        "content": "<b>Địa chỉ</b>: Số 2 Hạ Long phường Bãi Cháy,<br> tp Hạ Long.<br><b>Mô tả</b>: Là công trình kiến trúc<br> tưởng niệm các anh hùng liệt sỹ...",
        "link": "#Attraction/1"
    },
    {
        "lat": 21.011341, 
        "lng": 106.923740,
        "title": "Chùa Lôi Âm",
        "content": "<b>Địa chỉ</b>: phường Đại Yên, tp Hạ Long.<br><b>Mô tả</b>: Chùa Lôi Âm là một <br>ngôi chùa cổ nổi tiếng<br> ở Quảng Ninh với phong cảnh...",
        "link": "#Attraction/1"
    },
    {
        "lat": 20.975406, 
        "lng": 106.917459,
        "title": "Chùa Lôi Âm Hạ",
        "content": "<b>Địa chỉ</b>: phường Đại Yên,<br> tp Hạ Long.<br>",
        "link": "#Attraction/1"
    },
    {
        "lat": 20.987201, 
        "lng": 106.913967,
        "title": "Hồ Yên Lập",
        "content": "<b>Địa chỉ</b>: phường Đại Yên, tp Hạ Long.<br><b>Mô tả</b>: Hồ Yên Lập là hồ nước ngọt <br>nhân tạo lớn nhất <br>tỉnh Quảng Ninh...",
        "link": "#Attraction/1"
    },
    {
        "lat": 20.947526, 
        "lng": 107.075061,
        "title": "Đền đức ông Trần Quốc Nghiễn",
        "content": "<b>Địa chỉ</b>: Trần Quốc Nghiễn, <br>Hồng Gai, Hạ Long.<br><b>Mô tả</b>: Đây là một ngôi đền nhỏ, <br>có vị trí khá đẹp...",
        "link": "#Attraction/1"
    },
    {
        "lat": 20.947962, 
        "lng": 107.078543,
        "title": "Núi Bài Thơ",
        "content": "<b>Địa chỉ</b>: Hàng Nồi, Phuòng Bạch Đằng, <br>Thành phố Hạ Long, Quảng Ninh.<br><b>Mô tả</b>: Núi Bài Thơ là ngọn núi <br>đá vôi đẹp thuộc thành phố Hạ Long...",
        "link": "#Attraction/1"
    },
    {
        "lat": 20.950430, 
        "lng": 107.079514,
        "title": "Cung văn hóa thiếu nhi Quảng Ninh",
        "content": "<b>Địa chỉ</b>: 176 Lê Thánh Tông, <br>Hồng Hải, Thành phố Hạ Long<br><b>Mô tả</b>: Là nơi diễn ra các <br>hoạt động văn hóa, <br>nghệ thuật cho trẻ em <br>của thành phố Hạ Long",
        "link": "#Attraction/1"
    },
    {
        "lat": 20.943031,
        "lng": 107.107954,
        "title": "Công viên cây xanh Hạ Long",
        "content": "<b>Địa chỉ</b>: 108 Thánh Thiên, <br>Hồng Hải, Thành phố Hạ Long, <br>Quảng Ninh, Việt Nam<br><b>Mô tả</b>: Công viên có nhiều cây xanh, <br>mọi người thường đến đây <br>để hóng mát và đi dạo",
        "link": "#Attraction/1"
    }]